[{"title":"Plaine de la politique","location":{"latitude":36.8675,"longitude":25.53}},{"title":"Marais du sexy","location":{"latitude":36.8811,"longitude":25.5327}},{"title":"Baie de l'intime","location":{"latitude":36.8545,"longitude":25.5336}},{"title":"For\u00eat du n\u00e9cessaire","location":{"latitude":36.8765,"longitude":25.5173}},{"title":"test title","location":{"latitude":36.5498,"longitude":25.5358}},{"title":"super zone","location":{"latitude":"36.86407730322964","longitude":"25.507396937255418"}},{"title":"zone","location":{"latitude":"36.88680610915189","longitude":"25.508849136324557"}},{"title":"Terre du Milieu","location":{"latitude":"36.87449256449227","longitude":"25.52547486126947"}},{"title":"Isthme des projets avort\u00e9s","location":{"latitude":"36.86803447500488","longitude":"25.54842553330093"}},{"title":"Baie des d\u00e9pass\u00e9s","location":{"latitude":"36.865869842291815","longitude":"25.539953569399017"}},{"title":"Prequ'\u00eele du cochon","location":{"latitude":"36.85694659505713","longitude":"25.528062187362124"}}]